site_code,site_name,min_date,max_date,sites_date_range,sites_number_samples_with_neonic,sites_total_samples,Count Contains Imidacloprid,Count Does Not Contain Imidacloprid,Sites Percent Contining Imidacloprid,sites_contains_neonic,latitude,longitude,county
01_107,Arroyo de la Laguna at Pleasanton,2016-10-14,2017-06-06,10/14/2016 to 06/06/2017,1,7,1,6,14.285714285714285,TRUE,37.62672,-121.88258,Alameda
01_14,Sausal at E.22nd (204SAU030 2005 SWAMP),2017-04-06,2017-05-11,04/06/2017 to 05/11/2017,0,5,0,5,0,FALSE,37.78566,-122.22424,Alameda
01_15,Martin Cnyn/Koopman Cnyn Crk -Dublin Blvd-Safeway-I-680-(DPR Site ID:MCC040),2014-03-18,2018-06-12,03/18/2014 to 06/12/2018,2,7,2,5,28.57142857142857,TRUE,37.70646,-121.92672,Alameda
01_153,Alameda C Nr Fremont Ca,2017-04-04,2017-05-09,04/04/2017 to 05/09/2017,1,5,1,4,20,TRUE,37.5666,-122.00163,Alameda
01_154,Castro Valley C A Hayward Ca,2017-04-03,2017-05-01,04/03/2017 to 05/01/2017,0,5,0,5,0,FALSE,37.67993,-122.08052,Alameda
01_155,San Lorenzo C A Hayward Ca,2017-04-04,2017-05-09,04/04/2017 to 05/09/2017,0,5,0,5,0,FALSE,37.68549,-122.06441,Alameda
01_156,Crow C Nr Hayward Ca,2017-04-05,2017-05-10,04/05/2017 to 05/10/2017,0,6,0,6,0,FALSE,37.70493,-122.04385,Alameda
01_157,San Leandro C A Alvarado St A San Leandro Ca,2017-04-06,2017-05-11,04/06/2017 to 05/11/2017,0,5,0,5,0,FALSE,37.72661,-122.16618,Alameda
01_171,South San Ramon Creek at Johnson Drive,2017-11-16,2020-06-25,11/16/2017 to 06/25/2020,6,10,6,4,60,TRUE,37.70103,-121.91983,Alameda
01_174,SAN FRANCISCO BAY A COYOTE HILLS SL NR UNION CITY,2017-07-17,2017-07-17,07/17/2017 to 07/17/2017,0,1,0,1,0,FALSE,37.56056,-122.13111,Alameda
01_175,SAN FRANCISCO BAY A MOUNT EDEN C NR MOUNT EDEN CA,2017-07-19,2017-07-19,07/19/2017 to 07/19/2017,0,1,0,1,0,FALSE,37.61,-122.15806,Alameda
01_176,SAN FRANCISCO BAY A ROBERTS LANDING NR SAN LORENZO,2017-07-18,2017-07-18,07/18/2017 to 07/18/2017,0,1,0,1,0,FALSE,37.6625,-122.17611,Alameda
01_83,San Lorenzo Creek near Lorenzo Ave and Washington Ave,2018-08-07,2020-06-23,08/07/2018 to 06/23/2020,2,6,2,4,33.33333333333333,TRUE,37.6845,-122.13964,Alameda
04_41,S HONCUT C NR BANGOR CA,2018-12-03,2018-12-03,12/03/2018 to 12/03/2018,0,1,0,1,0,FALSE,39.36767,-121.37219,Butte
04_44,Lateral A12C-0379 at Biggs-Princeton Rd,2020-05-14,2020-09-09,05/14/2020 to 09/09/2020,0,5,0,5,0,FALSE,39.42106,-121.77207,Butte
05_5,NF CALAVERAS R NR MOKELUMNE HILL CA,2019-05-09,2019-05-09,05/09/2019 to 05/09/2019,0,1,0,1,0,FALSE,38.28197,-120.67018,Calaveras
06_42,Sycamore Slough Nr Dunnigan Ca,2013-06-18,2013-06-18,06/18/2013 to 06/18/2013,0,2,0,2,0,FALSE,38.9253,-121.88859,Colusa
06_43,Stone Corral Creek (DPR AG site); Regional Board Irr. Lands Mon. site code: 520STCRCK,2017-07-11,2020-09-09,07/11/2017 to 09/09/2020,0,16,0,16,0,FALSE,39.27518,-122.10458,Colusa
06_44,Willow Creek (DPR AG site),2017-07-11,2020-09-09,07/11/2017 to 09/09/2020,1,16,1,15,6.25,TRUE,39.40649,-122.08053,Colusa
06_45,Bounde Creek (DPR AG site),2017-07-11,2018-09-05,07/11/2017 to 09/05/2018,0,5,0,5,0,FALSE,39.4063,-122.05589,Colusa
07_113,Mallard Island-MI,2011-04-11,2011-06-13,04/11/2011 to 06/13/2011,0,10,0,10,0,FALSE,38.04278,-121.92013,Contra Costa
07_116,San Ramon C A San Ramon Ca,2017-04-05,2017-05-10,04/05/2017 to 05/10/2017,0,6,0,6,0,FALSE,37.77298,-121.99468,Contra Costa
07_117,San Ramon C A La Gonda Way A Danville Ca,2017-04-05,2017-05-03,04/05/2017 to 05/03/2017,3,5,3,2,60,TRUE,37.82571,-122.00354,Contra Costa
07_118,San Pablo C A Moraga Way A Orinda Ca,2017-04-04,2017-05-10,04/04/2017 to 05/10/2017,1,6,1,5,16.666666666666664,TRUE,37.86451,-122.17231,Contra Costa
07_119,Las Trampas C A Lafayette Ca,2017-04-04,2017-05-10,04/04/2017 to 05/10/2017,0,6,0,6,0,FALSE,37.8824,-122.1,Contra Costa
07_120,San Pablo C A Orinda Ca,2017-04-04,2017-05-02,04/04/2017 to 05/02/2017,0,5,0,5,0,FALSE,37.88655,-122.19312,Contra Costa
07_121,Walnut C A Civic Dr A Walnut Creek Ca,2017-04-05,2017-05-11,04/05/2017 to 05/11/2017,0,5,0,5,0,FALSE,37.90367,-122.05922,Contra Costa
07_122,Mt Diablo C A Clayton Ca,2017-04-06,2017-05-11,04/06/2017 to 05/11/2017,0,5,0,5,0,FALSE,37.95036,-121.94565,Contra Costa
07_123,Wilkie C A Santa Rita Rd Nr Richmond Ca,2017-04-03,2017-05-08,04/03/2017 to 05/08/2017,0,5,0,5,0,FALSE,37.96884,-122.29055,Contra Costa
07_125,Grayson C A Golf Club Rd Nr Pleasant Hill Ca,2017-04-06,2017-05-11,04/06/2017 to 05/11/2017,2,5,2,3,40,TRUE,37.972,-122.066,Contra Costa
07_126,Arroyo Del Hambre A Martinez Ca,2017-04-05,2017-05-03,04/05/2017 to 05/03/2017,0,5,0,5,0,FALSE,38.00326,-122.12997,Contra Costa
07_127,Bollman Wtp Finished Water A Clyde Ca,2001-04-17,2001-06-19,04/17/2001 to 06/19/2001,0,3,0,3,0,FALSE,38.02409,-122.0258,Contra Costa
07_128,Contra Costa Cn Div A Clyde Ca,2001-04-17,2001-08-21,04/17/2001 to 08/21/2001,0,3,0,3,0,FALSE,38.02409,-122.0258,Contra Costa
07_138,PINOLE C BL ALHAMBRA VALLEY RD NR PINOLE CA,2017-04-18,2017-05-10,04/18/2017 to 05/10/2017,0,4,0,4,0,FALSE,37.96865,-122.211,Contra Costa
07_140,Pine Creek near Walnut Creek at the end of Via De Mercados,2019-06-19,2019-06-19,06/19/2019 to 06/19/2019,0,1,0,1,0,FALSE,37.97641,-122.05159,Contra Costa
07_141,Cerrito Creek at Pierce Street,2020-01-16,2020-01-16,01/16/2020 to 01/16/2020,0,1,0,1,0,FALSE,37.89792,-122.30886,Contra Costa
07_142,Emeryville Crescent North,2020-01-16,2020-01-16,01/16/2020 to 01/16/2020,1,1,1,0,100,TRUE,37.82731,-122.28591,Contra Costa
07_143,Ettie St Pump Station WS,2020-01-16,2020-01-16,01/16/2020 to 01/16/2020,1,1,1,0,100,TRUE,37.826,-122.28896,Contra Costa
07_32,Cemetery Bridge (206SPA070 2002 SWAMP),2017-04-03,2017-05-08,04/03/2017 to 05/08/2017,0,5,0,5,0,FALSE,37.96278,-122.33278,Contra Costa
07_33,Grayson Crk at Center Avenue -(DPR Site ID:GRY030),2014-03-18,2017-06-06,03/18/2014 to 06/06/2017,1,5,1,4,20,TRUE,37.9835,-122.06857,Contra Costa
07_37,San Joaquin River at Antioch Ship Channel. CEDEN: 544SJCD12,2012-03-27,2012-05-29,03/27/2012 to 05/29/2012,0,10,0,10,0,FALSE,38.02161,-121.8063,Contra Costa
07_56,Kirker Creek at Dow Wetland Preserve,2014-03-18,2014-03-18,03/18/2014 to 03/18/2014,0,1,0,1,0,FALSE,38.01589,-121.83952,Contra Costa
07_57,Walnut Creek,2014-03-18,2014-03-18,03/18/2014 to 03/18/2014,0,1,0,1,0,FALSE,37.99902,-122.05634,Contra Costa
07_63,Walnut Creek @ Concord Ave O.C.,2016-10-14,2020-06-25,10/14/2016 to 06/25/2020,4,12,4,8,33.33333333333333,TRUE,37.98066,-122.05168,Contra Costa
08_36,DPR study 306 site: Morrison Creek at S Fred D Haight Dr (NorthCal Ag Monitoring),2016-05-25,2016-05-25,05/25/2016 to 05/25/2016,0,1,0,1,0,FALSE,41.9032,-124.14651,Del Norte
08_37,DPR study 306 site: Ritmer Creek at Hwy 101 (NorthCal Ag Monitoring),2016-05-25,2016-07-26,05/25/2016 to 07/26/2016,2,2,2,0,100,TRUE,41.937,-124.17523,Del Norte
09_15,NF COSUMNES R NR EL DORADO CA,2019-05-15,2019-12-10,05/15/2019 to 12/10/2019,0,4,0,4,0,FALSE,38.58879,-120.84494,El Dorado
10_58,"Summit Lake, West of Piute Pass",2011-09-08,2011-09-08,09/08/2011 to 09/08/2011,0,1,0,1,0,FALSE,37.23997,-118.69163,Fresno
10_59,South Fork Kings River at State Highway 180 Terminus,2014-07-14,2019-08-05,07/14/2014 to 08/05/2019,0,6,0,6,0,FALSE,36.79263,-118.58694,Fresno
10_60,South Fork Kings River Bridge,2014-07-14,2019-08-05,07/14/2014 to 08/05/2019,0,6,0,6,0,FALSE,36.798,-118.68665,Fresno
10_61,South Fork Kings River Upstream of Muir Rock,2018-06-11,2019-08-05,06/11/2018 to 08/05/2019,0,4,0,4,0,FALSE,36.79323,-118.58204,Fresno
13_10,Alamo River at Garst,2010-10-05,2019-10-15,10/05/2010 to 10/15/2019,13,13,13,0,100,TRUE,33.199,-115.59696,Imperial
13_14,Lat/long approx. In Salton Sea at mouth of Alamo R. ca. 0.25 mi. offshore,2011-10-11,2015-10-13,10/11/2011 to 10/13/2015,3,3,3,0,100,TRUE,33.20483,-115.61178,Imperial
13_21,Alamo River at All American Canal,2011-03-01,2011-03-01,03/01/2011 to 03/01/2011,0,1,0,1,0,FALSE,32.67524,-115.36994,Imperial
13_22,Holtville Main Drain at 115,2010-10-05,2019-10-15,10/05/2010 to 10/15/2019,9,9,9,0,100,TRUE,32.93092,-115.40611,Imperial
13_23,Malva Drain nr. Park,2011-03-01,2015-10-13,03/01/2011 to 10/13/2015,1,4,1,3,25,TRUE,33.05179,-115.48862,Imperial
13_25,Verde Drain at Bonds Corner Rd,2010-10-05,2015-10-13,10/05/2010 to 10/13/2015,4,5,4,1,80,TRUE,32.75552,-115.33697,Imperial
13_56,Alamo River at Rutherford Rd (upstream of Imperial State Wildlife Area),2010-10-05,2019-10-15,10/05/2010 to 10/15/2019,13,13,13,0,100,TRUE,33.04468,-115.48829,Imperial
13_57,New River at Vail Rd (USGS Gaging Station),2013-03-05,2013-03-05,03/05/2013 to 03/05/2013,1,2,1,1,50,TRUE,33.10461,-115.6644,Imperial
13_58,Salton Sea at Obsidian Butte,2010-10-05,2015-10-13,10/05/2010 to 10/13/2015,1,5,1,4,20,TRUE,33.1753,-115.63722,Imperial
13_60,"New River at Lack Road (DPR Ag site, ID:Imp_Lack)",2016-03-22,2019-10-15,03/22/2016 to 10/15/2019,8,8,8,0,100,TRUE,33.0999,-115.64876,Imperial
13_69,Rice Drain 3 at Wienert Rd,2010-10-05,2019-10-15,10/05/2010 to 10/15/2019,8,9,8,1,88.88888888888889,TRUE,32.86907,-115.65104,Imperial
13_71,New River at HWY S27/Keystone Rd,2011-10-11,2019-10-15,10/11/2011 to 10/15/2019,11,11,11,0,100,TRUE,32.91362,-115.60646,Imperial
13_73,Pine Drain btwn HWY 115 and Anderson,2011-10-11,2011-10-11,10/11/2011 to 10/11/2011,0,1,0,1,0,FALSE,32.86166,-115.41491,Imperial
13_75,Trifolium 3 Drain at Walker,2011-03-01,2011-03-01,03/01/2011 to 03/01/2011,0,1,0,1,0,FALSE,33.0732,-115.60427,Imperial
14_3,Amargosa River at Upper Canyon,2004-03-17,2004-03-17,03/17/2004 to 03/17/2004,0,1,0,1,0,FALSE,35.82589,-116.21903,Inyo
14_4,"Amargosa Rv At Tecopa, Ca",2004-03-17,2004-03-17,03/17/2004 to 03/17/2004,0,1,0,1,0,FALSE,35.84858,-116.23002,Inyo
16_12,Empire Weir pool at Hwy 41 (#2). CEDEN: 551EWPH41,2015-04-14,2016-11-30,04/14/2015 to 11/30/2016,2,6,2,4,33.33333333333333,TRUE,36.1786,-119.83414,Kings
19_157,Ballona Creek at Centinela Ave (DPR urban site ID: BAL),2014-03-26,2020-06-09,03/26/2014 to 06/09/2020,21,26,21,5,80.76923076923077,TRUE,33.98692,-118.41553,Los Angeles
19_158,Bouquet Creek,2014-03-26,2020-06-09,03/26/2014 to 06/09/2020,21,23,21,2,91.30434782608695,TRUE,34.42835,-118.53985,Los Angeles
19_205,Los Angeles River at Willow,2015-06-03,2020-06-08,06/03/2015 to 06/08/2020,19,21,19,2,90.47619047619048,TRUE,33.80581,-118.20545,Los Angeles
19_246,"San Gabriel River, DPR urban site code SGR",2015-08-11,2020-06-08,08/11/2015 to 06/08/2020,11,12,11,1,91.66666666666666,TRUE,33.79102,-118.09193,Los Angeles
19_247,Los Angeles River upper watershed,2015-06-03,2015-06-03,06/03/2015 to 06/03/2015,1,1,1,0,100,TRUE,34.15592,-118.28132,Los Angeles
19_326,San Francisquito C Ab San Francisquito Ph No 2,2004-05-10,2004-05-10,05/10/2004 to 05/10/2004,0,1,0,1,0,FALSE,34.54556,-118.51611,Los Angeles
19_379,Coyote Creek before merging with San Gabriel River (DPR urban monitoring site),2018-04-30,2018-04-30,04/30/2018 to 04/30/2018,1,1,1,0,100,TRUE,33.79093,-118.09154,Los Angeles
19_442,Outlet of Dry Canyon Creek,2019-11-20,2019-11-20,11/20/2019 to 11/20/2019,1,1,1,0,100,TRUE,34.43035,-118.53709,Los Angeles
19_443,Bouquet Canyon Creek at Confluence with Dry Canyon,2019-11-20,2019-11-20,11/20/2019 to 11/20/2019,1,1,1,0,100,TRUE,34.43013,-118.53711,Los Angeles
19_444,Compton Creek,2019-11-27,2019-11-27,11/27/2019 to 11/27/2019,1,1,1,0,100,TRUE,33.9354,-118.25479,Los Angeles
19_445,"Dominguez Channel storm drain, right downstream of DC",2019-11-20,2019-11-20,11/20/2019 to 11/20/2019,0,1,0,1,0,FALSE,33.87107,-118.29034,Los Angeles
19_446,Southern LAR stormdrain north of Whittier Blvd,2019-08-28,2019-08-28,08/28/2019 to 08/28/2019,0,1,0,1,0,FALSE,34.03928,-118.22861,Los Angeles
19_447,Northern LAR stormdrain north of Whittier Blvd,2019-08-28,2019-08-28,08/28/2019 to 08/28/2019,1,1,1,0,100,TRUE,34.04039,-118.22873,Los Angeles
19_54,Dominguez Channel - Artesia/Vermont - Dominguez Channel Region -  SWAMP station code  405DCARVT,2017-06-21,2020-06-09,06/21/2017 to 06/09/2020,7,8,7,1,87.5,TRUE,33.87105,-118.29057,Los Angeles
20_18,Middle Fork San Joaquin River near Ranger Station,2012-06-01,2012-06-01,06/01/2012 to 06/01/2012,0,1,0,1,0,FALSE,37.6293,-119.08569,Madera
20_8,Cottonwood Ck at Rd 20; Regional Board Irr. Lands Mon. site code: 545XCCART,2019-06-11,2019-09-05,06/11/2019 to 09/05/2019,0,4,0,4,0,FALSE,36.86871,-120.18314,Madera
21_95,CORTE MADERA C A ROSS CA,2017-04-06,2017-05-11,04/06/2017 to 05/11/2017,0,5,0,5,0,FALSE,37.96298,-122.55692,Marin
21_96,ARROYO SAN JOSE A FAIRWAY DR NR NOVATO CA,2017-04-19,2017-05-10,04/19/2017 to 05/10/2017,0,4,0,4,0,FALSE,38.0624,-122.581,Marin
21_97,ARROYO SAN JOSE A DIGITAL DR NR NOVATO CA,2017-04-05,2017-05-10,04/05/2017 to 05/10/2017,0,5,0,5,0,FALSE,38.0695,-122.532,Marin
21_98,NOVATO C A NOVATO CA,2017-04-05,2017-05-10,04/05/2017 to 05/10/2017,0,5,0,5,0,FALSE,38.1077,-122.57998,Marin
22_1,Merced River at El Portal,2012-06-29,2016-10-26,06/29/2012 to 10/26/2016,0,7,0,7,0,FALSE,37.66921,-119.81719,Mariposa
22_11,South Fork Merced River below Wawona Campground,2014-06-02,2014-08-11,06/02/2014 to 08/11/2014,0,2,0,2,0,FALSE,37.55011,-119.68546,Mariposa
22_2,"Merced River at Happy Isles Bridge near Yosemite, CA",2012-06-29,2017-04-11,06/29/2012 to 04/11/2017,0,11,0,11,0,FALSE,37.73095,-119.55907,Mariposa
22_3,"Merced River at Pohono Bridge near Yosemite, CA",2012-06-29,2017-04-11,06/29/2012 to 04/11/2017,0,11,0,11,0,FALSE,37.71643,-119.66631,Mariposa
22_4,Tenaya Lake Outflow,2013-07-07,2017-10-03,07/07/2013 to 10/03/2017,0,9,0,9,0,FALSE,37.82649,-119.46765,Mariposa
22_6,Pothole Meadow A Yosemite Np Ca,2003-07-29,2003-07-29,07/29/2003 to 07/29/2003,0,1,0,1,0,FALSE,37.70604,-119.58933,Mariposa
23_44,Russian R Nr Hopland Ca,2016-10-28,2016-10-28,10/28/2016 to 10/28/2016,0,1,0,1,0,FALSE,39.02656,-123.13056,Mendocino
23_45,Ef Russian R Nr Potter Valley Ca,2016-10-28,2016-10-28,10/28/2016 to 10/28/2016,0,1,0,1,0,FALSE,39.27028,-123.10083,Mendocino
24_32,Boundary Drain at Henry Miller Ave; Regional Board Irr. Lands Mon. site code: 541XSSJ07,2011-06-06,2011-06-06,06/06/2011 to 06/06/2011,0,1,0,1,0,FALSE,37.09916,-120.7789,Merced
24_33,Casebeer Lat Exten at Deadman Ck; Regional Board Irr. Lands Mon. site code: 545MRDCLE,2019-06-11,2020-09-10,06/11/2019 to 09/10/2020,2,9,2,7,22.22222222222222,TRUE,37.19516,-120.5614,Merced
24_44,Hilmar Drain at Central Ave; Regional Board Irr. Lands Mon. site code: 535XHDACA,2019-06-11,2020-09-10,06/11/2019 to 09/10/2020,0,7,0,7,0,FALSE,37.39055,-120.95919,Merced
24_50,Los Banos Ck at China Camp Rd; Regional Board Irr. Lands Mon. site code: 541XLBCCC,2011-06-06,2011-06-06,06/06/2011 to 06/06/2011,0,1,0,1,0,FALSE,37.11451,-120.8893,Merced
24_7,Merced River at River Road Bridge near Newman,2001-10-09,2002-11-07,10/09/2001 to 11/07/2002,0,20,0,20,0,FALSE,37.35056,-120.96167,Merced
24_83,Belmont Drain at Palazzo Rd,2011-06-06,2011-06-06,06/06/2011 to 06/06/2011,0,1,0,1,0,FALSE,37.13098,-120.74311,Merced
24_86,Devon Drain at Henry Miller Rd,2011-06-06,2011-06-06,06/06/2011 to 06/06/2011,0,1,0,1,0,FALSE,37.09895,-120.76573,Merced
24_87,Paso Slough/Belmont Drain near Hereford Rd,2011-06-06,2011-06-06,06/06/2011 to 06/06/2011,0,1,0,1,0,FALSE,37.1436,-120.7536,Merced
24_88,unnamed drain at Sand Slough Rd,2011-06-06,2011-06-06,06/06/2011 to 06/06/2011,0,1,0,1,0,FALSE,37.1791,-120.726,Merced
24_89,Salt Slough at Hereford,2011-06-06,2011-06-06,06/06/2011 to 06/06/2011,0,1,0,1,0,FALSE,37.14146,-120.756,Merced
25_4,DPR study306 site: Canal near County Rd 141 (NorthCal Ag Monitoring),2016-05-24,2016-05-24,05/24/2016 to 05/24/2016,0,1,0,1,0,FALSE,41.89015,-121.35009,Modoc
25_5,DPR study306 site:Canal at County Rd 131 (east) near railroad tracks (NorthCal Ag Monitoring),2016-05-24,2016-05-24,05/24/2016 to 05/24/2016,0,1,0,1,0,FALSE,41.81706,-121.39493,Modoc
25_7,DPR study306 site: Main Drain at County Rd 111 and North Dike Rd East Side (NorthCal Ag Monitoring),2016-05-24,2016-05-24,05/24/2016 to 05/24/2016,0,1,0,1,0,FALSE,41.90053,-121.41871,Modoc
27_10,"Reclamation Ditch at De LaTorre St, nr Airport Blvd, original DPR site",2010-05-17,2015-09-15,05/17/2010 to 09/15/2015,27,27,27,0,100,TRUE,36.65923,-121.61565,Monterey
27_11,Old Salinas River at Potrero,2011-04-26,2014-06-18,04/26/2011 to 06/18/2014,6,9,6,3,66.66666666666666,TRUE,36.79056,-121.79064,Monterey
27_12,Rec Ditch at San Jon Rd,2012-04-17,2020-12-17,04/17/2012 to 12/17/2020,45,45,45,0,100,TRUE,36.70487,-121.70506,Monterey
27_13,Salinas River at Davis Rd,2011-04-26,2020-09-23,04/26/2011 to 09/23/2020,11,33,11,22,33.33333333333333,TRUE,36.64686,-121.7021,Monterey
27_138,Salinas R Nr Bradley Ca,2017-03-14,2017-04-18,03/14/2017 to 04/18/2017,0,5,0,5,0,FALSE,35.93024,-120.86879,Monterey
27_139,Arroyo Seco River @ Elm St,2017-03-28,2017-04-11,03/28/2017 to 04/11/2017,0,3,0,3,0,FALSE,36.28052,-121.32271,Monterey
27_14,Salinas River at Del Monte Rd,2010-05-17,2015-08-13,05/17/2010 to 08/13/2015,1,15,1,14,6.666666666666667,TRUE,36.73172,-121.78252,Monterey
27_140,Chualar C A Chualar Canyon Rd Nr Chualar Ca,2017-03-28,2017-04-18,03/28/2017 to 04/18/2017,0,4,0,4,0,FALSE,36.6022,-121.431,Monterey
27_141,Alisal C A Fairview Ave Nr Salinas Ca,2017-03-13,2017-04-17,03/13/2017 to 04/17/2017,5,5,5,0,100,TRUE,36.66751,-121.62742,Monterey
27_142,Gabilan C Ab E Laurel Dr Nr Salinas Ca,2017-03-15,2017-04-19,03/15/2017 to 04/19/2017,2,5,2,3,40,TRUE,36.6939,-121.627,Monterey
27_143,Natividad C Nr Salinas Ca,2017-03-15,2017-04-12,03/15/2017 to 04/12/2017,5,5,5,0,100,TRUE,36.6987,-121.61072,Monterey
27_144,Gabilan C Nr Salinas Ca,2017-03-15,2017-04-12,03/15/2017 to 04/12/2017,1,5,1,4,20,TRUE,36.75579,-121.6105,Monterey
27_15,Espinosa Slough at HWY 183,2012-06-06,2012-06-06,06/06/2012 to 06/06/2012,1,1,1,0,100,TRUE,36.74011,-121.73883,Monterey
27_16,Gabilan Crk nr E Boronda at drain pipe,2012-06-06,2012-06-06,06/06/2012 to 06/06/2012,1,1,1,0,100,TRUE,36.71479,-121.61695,Monterey
27_17,Gabilan Crk nr E Boronda at spill wall,2012-06-06,2012-06-06,06/06/2012 to 06/06/2012,1,1,1,0,100,TRUE,36.71489,-121.61688,Monterey
27_2,Salinas River at Chualar River Rd. bridge,2012-06-05,2012-06-05,06/05/2012 to 06/05/2012,0,1,0,1,0,FALSE,36.55552,-121.54919,Monterey
27_31,Carneros Crk,2011-04-26,2011-04-26,04/26/2011 to 04/26/2011,0,1,0,1,0,FALSE,36.86002,-121.74005,Monterey
27_50,Old Salinas R. at Monterey Dunes Way,2011-06-14,2015-08-13,06/14/2011 to 08/13/2015,1,8,1,7,12.5,TRUE,36.7719,-121.78971,Monterey
27_58,Tembladero Sl. at Molera,2013-06-11,2015-08-13,06/11/2013 to 08/13/2015,4,5,4,1,80,TRUE,36.77211,-121.78763,Monterey
27_59,Tembladero Sl. at Preston,2014-03-03,2014-03-03,03/03/2014 to 03/03/2014,2,2,2,0,100,TRUE,36.76518,-121.75825,Monterey
27_66,Tembladero Slough at Haro,2010-05-17,2020-12-17,05/17/2010 to 12/17/2020,56,56,56,0,100,TRUE,36.75955,-121.75433,Monterey
27_7,"Quail Creek at HWY 101, btwn Spence and Potter Roads (trib. to Salinas R.)",2010-05-17,2020-12-17,05/17/2010 to 12/17/2020,50,50,50,0,100,TRUE,36.60922,-121.56269,Monterey
27_70,Alisal Creek at Hartnell Rd,2010-05-17,2020-12-17,05/17/2010 to 12/17/2020,53,53,53,0,100,TRUE,36.6435,-121.57836,Monterey
27_71,"Elkhorn Sl., Hudsons Landing, east (upstream) of tide gates",2011-06-14,2011-06-14,06/14/2011 to 06/14/2011,0,1,0,1,0,FALSE,36.85623,-121.7548,Monterey
27_74,Natividad Creek near Rhode Island Circle (in Natividad Crk Park),2012-06-06,2013-06-11,06/06/2012 to 06/11/2013,2,2,2,0,100,TRUE,36.70172,-121.60304,Monterey
27_8,"Chualar Creek at Chualar River Rd., ca. 1.2 mi. from HWY 101 (trib. to Salinas R.)",2010-05-17,2020-09-23,05/17/2010 to 09/23/2020,52,52,52,0,100,TRUE,36.55835,-121.52964,Monterey
27_9,"Blanco Drain at Cooper Rd, ca 0.2 mi. S of Nashua Rd, drains to Salinas R.",2011-04-26,2015-08-13,04/26/2011 to 08/13/2015,1,4,1,3,25,TRUE,36.6987,-121.73517,Monterey
27_94,Salinas Reclamation Canal @ La Guardia,2015-04-29,2017-01-12,04/29/2015 to 01/12/2017,6,6,6,0,100,TRUE,36.65683,-121.6135,Monterey
28_10,Napa River at Yountville Cross . DPR study 255 siteID: N2,2012-05-30,2012-05-30,05/30/2012 to 05/30/2012,0,1,0,1,0,FALSE,38.41825,-122.35197,Napa
28_16,"NAPA C A NAPA",2017-04-05,2017-05-10,04/05/2017 to 05/10/2017,0,5,0,5,0,FALSE,38.30186,-122.30386,Napa
28_17,MILLIKEN C BL HEDGESIDE AVE NR NAPA CA,2017-04-06,2017-05-04,04/06/2017 to 05/04/2017,0,5,0,5,0,FALSE,38.33806,-122.26972,Napa
28_19,RITCHEY C NR DEER PARK CA,2017-04-18,2017-05-09,04/18/2017 to 05/09/2017,0,4,0,4,0,FALSE,38.5514,-122.522,Napa
28_20,"NAPA R A BALE LN NR DEER PARK CA",2017-04-04,2017-05-02,04/04/2017 to 05/02/2017,0,5,0,5,0,FALSE,38.5559,-122.506,Napa
28_8,Conn Creek at Oakville Cross Road,2012-05-30,2017-05-09,05/30/2012 to 05/09/2017,0,7,0,7,0,FALSE,38.44734,-122.38051,Napa
30_10,Garden Grove below OC gauging station (DPR urban site),2018-04-30,2018-04-30,04/30/2018 to 04/30/2018,0,1,0,1,0,FALSE,33.71751,-117.99955,Orange
30_13,Santa Ana R Ab Sprd Div Bl Imperial Hwy Nr Anaheim_USGS NAWQA site,2000-02-12,2000-04-13,02/12/2000 to 04/13/2000,0,4,0,4,0,FALSE,33.85582,-117.797,Orange
30_200,Bolsa Chica Channel (DPR urban site),2018-04-30,2020-03-10,04/30/2018 to 03/10/2020,3,3,3,0,100,TRUE,33.75031,-118.04252,Orange
30_201,Anaheim-Barber City Channel,2018-08-21,2020-03-10,08/21/2018 to 03/10/2020,4,5,4,1,80,TRUE,33.7503,-118.04218,Orange
30_24,storm drain -North neighborhood (contributing)-drains to Salt Crk (DPR Site ID:SC3),2010-10-26,2020-06-07,10/26/2010 to 06/07/2020,38,41,38,3,92.6829268292683,TRUE,33.51193,-117.69707,Orange
30_25,storm drain - South neighborhood (contributing)-drains to Salt Crk (DPR Site ID:SC1),2010-10-26,2020-06-07,10/26/2010 to 06/07/2020,32,38,32,6,84.21052631578947,TRUE,33.50912,-117.69067,Orange
30_26,"Salt Crk, below Niguel Road bridge -(DPR urban Site ID:SC5)",2012-08-28,2020-06-07,08/28/2012 to 06/07/2020,35,38,35,3,92.10526315789474,TRUE,33.50595,-117.7074,Orange
30_27,Wood Cnyn/Aliso Crk below storm drains (DPR urban Site ID:AV01),2016-11-21,2016-11-21,11/21/2016 to 11/21/2016,1,1,1,0,100,TRUE,33.58131,-117.74585,Orange
30_28,storm drain-Below constructed wetland -drains to Wood Cnyn/Aliso Crk(DPR Site ID:WC2),2010-10-27,2011-06-14,10/27/2010 to 06/14/2011,1,5,1,4,20,TRUE,33.58158,-117.74577,Orange
30_29,storm drain-South neighborhood (contributing)-drains to Wood Cnyn/Aliso Crk(DPR Site ID:WC3),2010-10-27,2012-06-25,10/27/2010 to 06/25/2012,5,8,5,3,62.5,TRUE,33.58157,-117.74573,Orange
30_30,storm drain - Above constructed wetland-drains to Wood Cnyn/Aliso Crk(DPR Site ID:WC1),2010-10-27,2020-06-08,10/27/2010 to 06/08/2020,21,38,21,17,55.26315789473685,TRUE,33.58245,-117.74527,Orange
30_42,"storm drain in Laguna Niguel-Side canyon, north, b/f receiving waters (DPR site ID: SC4)",2010-10-26,2020-06-07,10/26/2010 to 06/07/2020,34,38,34,4,89.47368421052632,TRUE,33.50857,-117.70736,Orange
30_43,storm drain in Laguna Niguel-Above golf course (DPR site ID: SC6),2010-10-26,2015-06-02,10/26/2010 to 06/02/2015,8,17,8,9,47.05882352941176,TRUE,33.49222,-117.71735,Orange
30_44,"storm drain in Laguna Niguel- On coast, below golf course (Salt Creek outlet) (DPR site ID : SC7)",2010-10-26,2020-06-07,10/26/2010 to 06/07/2020,38,40,38,2,95,TRUE,33.48168,-117.72409,Orange
30_46,"storm drain in Laguna Niguel-East neighborhood (contributing), at baseball field (DPR site id: SC2)",2010-10-26,2020-06-07,10/26/2010 to 06/07/2020,32,40,32,8,80,TRUE,33.51131,-117.69465,Orange
31_26,Pleasant Grove Crk at Veteran's Memorial Park - (DPR Site ID:PGC040),2011-06-27,2018-06-11,06/27/2011 to 06/11/2018,14,31,14,17,45.16129032258064,TRUE,38.79857,-121.34802,Placer
31_27,Storm Drain at Crocker Ranch Road - drains to Pleasant Grove Crk (DPR Site ID:PGC030),2011-06-27,2011-06-27,06/27/2011 to 06/27/2011,0,1,0,1,0,FALSE,38.79908,-121.34698,Placer
31_29,Storm Drain at Dugan Park on Diamond Woods Crcl-drains to Pleasant Grove Crk (DPR Site ID:PGC010),2011-06-27,2020-06-24,06/27/2011 to 06/24/2020,24,37,24,13,64.86486486486487,TRUE,38.80477,-121.32733,Placer
31_30,Single Storm Drain at Opal and Parkside Way-drains to Pleasant Grove Crk,2011-08-01,2018-06-11,08/01/2011 to 06/11/2018,10,29,10,19,34.48275862068966,TRUE,38.80267,-121.33855,Placer
31_31,Dual Storm Drain at Opal and Parkside Way-drains to Pleasant Grove Crk (DPR site id: PGC022),2011-08-01,2020-03-16,08/01/2011 to 03/16/2020,22,36,22,14,61.111111111111114,TRUE,38.80261,-121.33881,Placer
31_34,Tributary stream nr. ParksideWay & BridgesideCt.  influx to Pleasant Grv crk(DPR site id: PGC025),2011-06-27,2012-06-19,06/27/2011 to 06/19/2012,2,4,2,2,50,TRUE,38.80143,-121.33952,Placer
31_36,Pleasant Grove Creek downstream receiving site(DPR site id: PGC058),2011-08-01,2020-06-24,08/01/2011 to 06/24/2020,15,17,15,2,88.23529411764706,TRUE,38.79477,-121.37251,Placer
31_37,Kaseberg Creek at Corin Dr and Fairhall Ct(DPR site id: KBC090),2011-06-27,2011-06-27,06/27/2011 to 06/27/2011,1,1,1,0,100,TRUE,38.78585,-121.36418,Placer
31_39,Dry Creek at Walerga Rd near Baseline Rd and Fiddyment Rd(DPR site id: DRY100),2011-08-01,2014-03-17,08/01/2011 to 03/17/2014,1,3,1,2,33.33333333333333,TRUE,38.73698,-121.36462,Placer
31_40,TribuStrm at Dr.PaulJ.DugnPk on Diamd Wods Cir nr influx to PlsntGrvCrk (DPR site id: PGC015),2011-06-27,2012-06-19,06/27/2011 to 06/19/2012,1,5,1,4,20,TRUE,38.80398,-121.32869,Placer
31_41,"Conflunc of two Storm Drain outlfows at Opal and Pksde Wy, left side of strm (DPR site id: PGC019)",2011-06-27,2020-06-24,06/27/2011 to 06/24/2020,4,6,4,2,66.66666666666666,TRUE,38.80248,-121.3386,Placer
31_42,Pleasant Grove Creek NE of Woodcreek Oaks Blvd. DPR siteID: PGC001,2011-06-27,2011-06-27,06/27/2011 to 06/27/2011,0,1,0,1,0,FALSE,38.80383,-121.32147,Placer
31_43,South Branch Pleasant Grove Creek at Veterans Park. DPR siteID: SBP100,2011-06-27,2011-06-27,06/27/2011 to 06/27/2011,1,1,1,0,100,TRUE,38.79541,-121.34661,Placer
31_45,Curry Creek outfall from neighborhood,2014-03-17,2014-03-17,03/17/2014 to 03/17/2014,1,1,1,0,100,TRUE,38.75806,-121.35892,Placer
31_57,Columbia Ave and Miner's Ravine Trail off Folsom Road,2018-08-06,2019-06-18,08/06/2018 to 06/18/2019,1,3,1,2,33.33333333333333,TRUE,38.75049,-121.27918,Placer
31_58,Dry Creek at Darling Way,2019-06-18,2020-06-24,06/18/2019 to 06/24/2020,1,5,1,4,20,TRUE,38.73613,-121.28916,Placer
31_59,BEAR R BL STEEPHOLLOW C NR CHICAGO PARK CA,2019-05-14,2019-05-23,05/14/2019 to 05/23/2019,0,2,0,2,0,FALSE,39.17295,-120.90466,Placer
31_61,Miner's Ravine,2014-03-17,2014-03-17,03/17/2014 to 03/17/2014,0,1,0,1,0,FALSE,38.75734,-121.25844,Placer
33_2,Santa Ana R Bl Prado Dam California_USGS NAWQA site,2010-01-20,2020-08-12,01/20/2010 to 08/12/2020,120,154,120,34,77.92207792207793,TRUE,33.88335,-117.64533,Riverside
34_100,Sacramento R A R Mile 19.0 Nr Isleton Ca,2016-05-13,2016-10-28,05/13/2016 to 10/28/2016,0,2,0,2,0,FALSE,38.17715,-121.59023,Sacramento
34_101,Sacramento R A R Mile 30.5 Nr Vorden Ca,2016-05-13,2016-10-28,05/13/2016 to 10/28/2016,0,2,0,2,0,FALSE,38.28423,-121.55307,Sacramento
34_102,Sacramento R A R Mile 46.4 A Freeport Ca,2016-05-12,2016-10-27,05/12/2016 to 10/27/2016,0,2,0,2,0,FALSE,38.46112,-121.50347,Sacramento
34_103,Sacramento R A R Mile 55.8 Nr Sacramento Ca,2016-05-11,2016-10-26,05/11/2016 to 10/26/2016,0,2,0,2,0,FALSE,38.5404,-121.51288,Sacramento
34_104,America R Div A Sacramento Ca,2001-03-28,2001-04-18,03/28/2001 to 04/18/2001,0,2,0,2,0,FALSE,38.55907,-121.41856,Sacramento
34_105,American R Wtp Finished Water A Sacramento Ca,2001-04-18,2001-04-18,04/18/2001 to 04/18/2001,0,1,0,1,0,FALSE,38.55907,-121.41856,Sacramento
34_107,American R 1 Mi Ab Mouth Ca,2016-05-11,2016-10-26,05/11/2016 to 10/26/2016,0,2,0,2,0,FALSE,38.6024,-121.49329,Sacramento
34_108,Sacramento R A R Mile 69.5 Nr Bryte Ca,2016-05-11,2016-10-26,05/11/2016 to 10/26/2016,0,2,0,2,0,FALSE,38.66222,-121.61072,Sacramento
34_114,American River College; Winding Way near College Oak Drive,2018-08-06,2020-03-16,08/06/2018 to 03/16/2020,5,7,5,2,71.42857142857143,TRUE,38.64529,-121.34736,Sacramento
34_115,SACRAMENTO R A SHERWOOD HARBOR NR W SACRAMENTO CA,2017-08-29,2020-03-09,08/29/2017 to 03/09/2020,0,36,0,36,0,FALSE,38.53207,-121.52803,Sacramento
34_116,DELTA RMP SACR-001,2018-12-19,2018-12-19,12/19/2018 to 12/19/2018,1,1,1,0,100,TRUE,38.16498,-121.621,Sacramento
34_117,DELTA RMP SACR-005,2019-04-30,2019-04-30,04/30/2019 to 04/30/2019,0,1,0,1,0,FALSE,38.18899,-121.641,Sacramento
34_118,DELTA RMP SACR-012,2019-09-17,2019-09-17,09/17/2019 to 09/17/2019,0,1,0,1,0,FALSE,38.19272,-121.56753,Sacramento
34_119,DELTA RMP SACR-008,2019-06-18,2019-06-18,06/18/2019 to 06/18/2019,0,1,0,1,0,FALSE,38.19472,-121.61907,Sacramento
34_120,DELTA RMP SACR-003,2019-02-06,2019-02-06,02/06/2019 to 02/06/2019,1,1,1,0,100,TRUE,38.23917,-121.521,Sacramento
34_121,DELTA RMP SACR-006,2019-04-30,2019-04-30,04/30/2019 to 04/30/2019,0,1,0,1,0,FALSE,38.24024,-121.602,Sacramento
34_122,DELTA RMP SACR-025,2019-02-06,2019-02-06,02/06/2019 to 02/06/2019,1,1,1,0,100,TRUE,38.294,-121.58244,Sacramento
34_123,DELTA RMP SACR-009,2019-07-29,2019-07-29,07/29/2019 to 07/29/2019,0,1,0,1,0,FALSE,38.31436,-121.57723,Sacramento
34_124,DELTA RMP SACR-010,2019-07-29,2019-07-29,07/29/2019 to 07/29/2019,0,1,0,1,0,FALSE,38.45881,-121.50239,Sacramento
34_125,DELTA RMP SACR-007,2019-06-17,2019-06-17,06/17/2019 to 06/17/2019,0,1,0,1,0,FALSE,38.47372,-121.52027,Sacramento
34_126,DELTA RMP SACR-011,2019-09-16,2019-09-16,09/16/2019 to 09/16/2019,0,1,0,1,0,FALSE,38.51454,-121.54563,Sacramento
34_15,Arcade Creek at Norwood,2014-03-17,2016-04-09,03/17/2014 to 04/09/2016,1,6,1,5,16.666666666666664,TRUE,38.62395,-121.45719,Sacramento
34_23,Sacramento River at River Mile 44,2016-05-12,2016-10-27,05/12/2016 to 10/27/2016,0,2,0,2,0,FALSE,38.4347,-121.5192,Sacramento
34_25,Arcade C Nr Del Paso Heights California_USGS NAWQA site,2004-10-01,2005-09-28,10/01/2004 to 09/28/2005,15,23,15,8,65.21739130434783,TRUE,38.64196,-121.382,Sacramento
34_26,Cosumnes R at Michigan Bar California_USGS NAWQA site,2001-10-12,2001-11-07,10/12/2001 to 11/07/2001,0,2,0,2,0,FALSE,38.50029,-121.044,Sacramento
34_43,Storm Drain near open space at Brock Circle - drains to Alder Crk  (DPR Site ID:FOL002),2011-08-02,2020-06-24,08/02/2011 to 06/24/2020,14,37,14,23,37.83783783783784,TRUE,38.6503,-121.14494,Sacramento
34_45,Storm Drain at Marsh Hawk Dr. near Widgeon Ct. - drains to Alder Crk (DPR Site ID:FOL001),2011-08-02,2011-10-05,08/02/2011 to 10/05/2011,0,3,0,3,0,FALSE,38.65565,-121.14375,Sacramento
34_5,Sacramento River at Freeport (USGS-11447650),2012-05-17,2020-09-30,05/17/2012 to 09/30/2020,0,142,0,142,0,FALSE,38.45602,-121.50134,Sacramento
34_72,Sacramento River above Point Sacramento. CEDEN: 510SAC0D4,2012-03-27,2012-05-29,03/27/2012 to 05/29/2012,0,10,0,10,0,FALSE,38.06242,-121.82051,Sacramento
34_73,"Outfall at Marsh Hawk Dr betwn Donnelly Cir & Widgeon Ct,feeds into wetland(DPR site id: FOL003)",2011-08-02,2017-11-06,08/02/2011 to 11/06/2017,12,26,12,14,46.15384615384615,TRUE,38.64938,-121.14494,Sacramento
34_76,"Alder Creek receiving water at Iron Point Rd., near Buckingham Way(DPR site id: FOL100)",2012-07-31,2016-12-06,07/31/2012 to 12/06/2016,8,15,8,7,53.333333333333336,TRUE,38.64559,-121.14442,Sacramento
34_77,storm drain-Turn Pike Dr at Natoma Dr (DPR site id: TRP1),2014-05-07,2014-07-09,05/07/2014 to 07/09/2014,0,2,0,2,0,FALSE,38.64979,-121.18014,Sacramento
34_79,City of Sacramento water municipal water intake (RPP siteID: SRR),2001-03-28,2001-08-22,03/28/2001 to 08/22/2001,0,10,0,10,0,FALSE,38.59372,-121.5072,Sacramento
34_88,ARC_Del_Paso (DPR urban monitoring site),2016-04-09,2017-10-20,04/09/2016 to 10/20/2017,3,4,3,1,75,TRUE,38.62822,-121.42061,Sacramento
34_91,Sacramento River at Hood Monitoring Station Platform,2011-04-11,2017-06-13,04/11/2011 to 06/13/2017,3,36,3,33,8.333333333333332,TRUE,38.36771,-121.5205,Sacramento
35_6,Tequisquita Slough upstream Pajaro River @ Shore Rd,2017-03-16,2017-04-20,03/16/2017 to 04/20/2017,4,5,4,1,80,TRUE,36.9425,-121.44483,San Benito
36_12,Warm C Nr San Bernardino California_USGS NAWQA site,2000-03-14,2000-04-10,03/14/2000 to 04/10/2000,0,2,0,2,0,FALSE,34.07777,-117.3,San Bernardino
36_53,Amargosa River below Willow Cr,2004-03-18,2004-03-18,03/18/2004 to 03/18/2004,0,1,0,1,0,FALSE,35.78341,-116.20115,San Bernardino
36_60,Fredalba C Nr Running Springs Ca,2004-05-11,2004-05-11,05/11/2004 to 05/11/2004,0,1,0,1,0,FALSE,34.17306,-117.12944,San Bernardino
36_61,Ef City C Nr Running Springs Ca,2004-05-11,2004-05-11,05/11/2004 to 05/11/2004,0,1,0,1,0,FALSE,34.18667,-117.17722,San Bernardino
36_65,Piute C 0.30 Mi Ds Of Piute Spring Nr Goffs Ca,2006-05-17,2006-05-17,05/17/2006 to 05/17/2006,0,1,0,1,0,FALSE,35.11078,-114.99078,San Bernardino
37_101,Sweetwater Res Nr Pump Tower Upper,2002-06-11,2006-01-10,06/11/2002 to 01/10/2006,0,17,0,17,0,FALSE,32.69172,-117.0078,San Diego
37_162,"Chollas Creek, south fork @S 36th St (DPR urban site ID: CHO2)",2014-03-27,2014-03-27,03/27/2014 to 03/27/2014,1,1,1,0,100,TRUE,32.69105,-117.11758,San Diego
37_300,"Tecolote Canyon Creek, DPR urban site code TCC",2015-08-10,2017-06-20,08/10/2015 to 06/20/2017,0,4,0,4,0,FALSE,32.77535,-117.2007,San Diego
37_37,SDR receving water downstream from Fashion Valley Road -  DPR urban site ID: SDR2,2014-03-27,2014-03-27,03/27/2014 to 03/27/2014,0,1,0,1,0,FALSE,32.7617,-117.19106,San Diego
37_387,Rainbow C A Huffstatler St A Rainbow Ca,2015-08-26,2016-12-19,08/26/2015 to 12/19/2016,6,6,6,0,100,TRUE,33.41528,-117.15194,San Diego
37_388,SDR4 (DPR urban site),2017-08-29,2019-12-04,08/29/2017 to 12/04/2019,5,6,5,1,83.33333333333334,TRUE,32.84504,-116.99121,San Diego
37_48,Sweetwater River 8 (909SSWR08 2006 SWAMP),2015-08-24,2016-12-19,08/24/2015 to 12/19/2016,2,6,2,4,33.33333333333333,TRUE,32.65897,-117.04181,San Diego
37_56,San Diego River at Fashion Valley Road - (DPR urban Site ID:SDR101),2014-03-27,2019-08-27,03/27/2014 to 08/27/2019,1,12,1,11,8.333333333333332,TRUE,32.76436,-117.1701,San Diego
37_699,Chollas Creek north fork @ Durant Street,2018-10-13,2019-11-21,10/13/2018 to 11/21/2019,2,2,2,0,100,TRUE,32.70485,-117.12114,San Diego
37_95,Loveland Res Nr Dam Site 1 Upper,2002-06-12,2005-01-13,06/12/2002 to 01/13/2005,0,8,0,8,0,FALSE,32.78422,-116.7928,San Diego
37_96,Sweetwater R A Low Flow Div Dam Abv Sweetwater,2002-03-20,2005-07-13,03/20/2002 to 07/13/2005,0,16,0,16,0,FALSE,32.71978,-116.95058,San Diego
37_97,Sweetwater Res E End Res Fill Bndry Upper,2003-08-19,2003-12-16,08/19/2003 to 12/16/2003,0,3,0,3,0,FALSE,32.70255,-116.98141,San Diego
37_99,Sweetwater Res Ctr Of Min Pool Upper,2003-06-17,2005-10-11,06/17/2003 to 10/11/2005,0,5,0,5,0,FALSE,32.692,-117.00114,San Diego
39_124,Tracy Wtp Finished Water A Tracy Ca,2001-03-27,2001-03-27,03/27/2001 to 03/27/2001,0,1,0,1,0,FALSE,37.68132,-121.43883,San Joaquin
39_17,San Joaquin River near Vernalis,2001-10-10,2020-07-21,10/10/2001 to 07/21/2020,24,216,24,192,11.11111111111111,TRUE,37.67555,-121.26547,San Joaquin
39_19,Mokelumne River at New Hope Rd Bridge (in Delta),2015-07-28,2017-06-13,07/28/2015 to 06/13/2017,1,24,1,23,4.166666666666666,TRUE,38.23611,-121.41889,San Joaquin
39_50,French Camp Slough @ Airport Way; Regional Board Irr. Lands Mon. site code: 531SJC504,2015-04-21,2016-09-20,04/21/2015 to 09/20/2016,3,5,3,2,60,TRUE,37.8813,-121.2482,San Joaquin
39_95,San Joaquin R at Buckley Cove. CEDEN: 544LSAC13,2015-07-28,2019-09-16,07/28/2015 to 09/16/2019,15,30,15,15,50,TRUE,37.97183,-121.37362,San Joaquin
40_13,Oso Flaco Crk at Oso Flaco Lake Rd,2010-06-08,2020-09-22,06/08/2010 to 09/22/2020,32,32,32,0,100,TRUE,35.01633,-120.58754,San Luis Obispo
40_19,Oso Flaco Lake @ culvert (312OFLxxx 2007 SWAMP),2012-07-11,2012-09-12,07/11/2012 to 09/12/2012,1,2,1,1,50,TRUE,35.03115,-120.62021,San Luis Obispo
40_23,"Little Oso Flaco Creek, DPR Ag study site",2012-05-16,2013-08-14,05/16/2012 to 08/14/2013,0,6,0,6,0,FALSE,35.02277,-120.58713,San Luis Obispo
40_32,Chorro Creek upstream from Chorro Flats,2017-03-15,2017-04-19,03/15/2017 to 04/19/2017,0,5,0,5,0,FALSE,35.35746,-120.8121,San Luis Obispo
40_36,Atascadero Creek Highway 41,2017-03-16,2017-04-20,03/16/2017 to 04/20/2017,0,5,0,5,0,FALSE,35.49293,-120.66403,San Luis Obispo
40_46,Lopez C Nr Arroyo Grande Ca,2017-03-28,2017-04-18,03/28/2017 to 04/18/2017,0,3,0,3,0,FALSE,35.23553,-120.47239,San Luis Obispo
40_47,San Luis Obispo C A Los Osos Vly Rd Nr San Luis Ob,2015-05-20,2017-04-19,05/20/2015 to 04/19/2017,11,11,11,0,100,TRUE,35.24333,-120.68111,San Luis Obispo
40_48,Stenner C A Murray Ave A San Luis Obispo Ca,2017-03-15,2017-04-19,03/15/2017 to 04/19/2017,0,6,0,6,0,FALSE,35.2904,-120.66632,San Luis Obispo
40_49,Nacimiento R Bl Sapaque C Nr Bryson Ca,2017-03-30,2017-04-13,03/30/2017 to 04/13/2017,0,3,0,3,0,FALSE,35.78858,-121.0938,San Luis Obispo
41_192,SAN FRANCISCO BAY A GRECO ISLAND NR REDWOOD CITY,2017-07-17,2017-07-17,07/17/2017 to 07/17/2017,0,1,0,1,0,FALSE,37.52778,-122.18389,San Mateo
41_193,SAN FRANCISCO BAY A BAIR ISLAND NR SAN CARLOS CA,2017-07-19,2017-07-19,07/19/2017 to 07/19/2017,0,1,0,1,0,FALSE,37.54528,-122.22194,San Mateo
41_194,SAN FRANCISCO BAY A LITTLE COYOTE PT A FOSTER CITY,2017-07-19,2017-07-19,07/19/2017 to 07/19/2017,0,1,0,1,0,FALSE,37.57639,-122.265,San Mateo
41_6,"San Francisquitos Creek at USGS gauge, Stanford University",2017-03-16,2017-04-20,03/16/2017 to 04/20/2017,0,6,0,6,0,FALSE,37.42361,-122.18861,San Mateo
42_119,"Bradley Channel at Stanford Dr.(DPR Ag site, ID:SM_Bradley)",2016-05-17,2017-07-18,05/17/2016 to 07/18/2017,4,4,4,0,100,TRUE,34.9743,-120.4247,Santa Barbara
42_126,Santa Ynez R A Solvang Ca,2017-03-13,2017-04-17,03/13/2017 to 04/17/2017,1,6,1,5,16.666666666666664,TRUE,34.58499,-120.14459,Santa Barbara
42_38,Santa Barbara Harbor random site 19 - Santa Barbara Harbor Region -  SWAMP station code  315SBRB19,2017-03-14,2017-04-11,03/14/2017 to 04/11/2017,0,5,0,5,0,FALSE,34.4,-119.68,Santa Barbara
42_48,Orcutt/Solomon Canyon Crk at HWY 1,2010-06-08,2020-09-22,06/08/2010 to 09/22/2020,32,32,32,0,100,TRUE,34.9414,-120.5742,Santa Barbara
42_49,"Main St. Ditch at HWY 166, Santa Maria  (DPR Ag study site)",2010-06-08,2020-09-22,06/08/2010 to 09/22/2020,17,17,17,0,100,TRUE,34.95474,-120.48501,Santa Barbara
42_50,Orcutt Crk at W. Main,2010-06-08,2020-09-22,06/08/2010 to 09/22/2020,40,40,40,0,100,TRUE,34.95751,-120.63243,Santa Barbara
42_53,Orcutt Creek at Brown Road (312GVTxxx 2007 SWAMP),2013-05-15,2015-09-16,05/15/2013 to 09/16/2015,4,4,4,0,100,TRUE,34.93387,-120.55799,Santa Barbara
42_55,Orcutt Solomon Creek at Black Road (312ORBxxx 2007 SWAMP),2017-03-14,2017-04-18,03/14/2017 to 04/18/2017,5,5,5,0,100,TRUE,34.88386,-120.49406,Santa Barbara
42_72,Green Valley Creek @ Simas (DPR Ag study site),2013-05-15,2014-05-14,05/15/2013 to 05/14/2014,2,2,2,0,100,TRUE,34.9423,-120.5563,Santa Barbara
42_87,Franklin Creek 300 feet above Meadow View Road,2013-06-11,2013-06-11,06/11/2013 to 06/11/2013,1,1,1,0,100,TRUE,34.40729,-119.51741,Santa Barbara
42_9,Santa Ynez River at 13th Street - Santa Ynez River Region -  SWAMP station code  314SYN001,2017-03-14,2017-04-11,03/14/2017 to 04/11/2017,4,4,4,0,100,TRUE,34.67,-120.55,Santa Barbara
43_107,Canoas Creek at Nightingale Drive,2019-06-19,2019-06-19,06/19/2019 to 06/19/2019,0,1,0,1,0,FALSE,37.28769,-121.8772,Santa Clara
43_26,Coyote Creek at Montague Expressway,2014-07-07,2017-06-06,07/07/2014 to 06/06/2017,0,4,0,4,0,FALSE,37.39586,-121.91515,Santa Clara
43_27,Guadalupe River at Trimble Rd,2014-07-07,2020-06-23,07/07/2014 to 06/23/2020,2,8,2,6,25,TRUE,37.38062,-121.93802,Santa Clara
43_29,Guadalupe River-GR,2017-03-13,2018-08-07,03/13/2017 to 08/07/2018,0,8,0,8,0,FALSE,37.37356,-121.93283,Santa Clara
43_3,San Francisquitos Creek (urban),2017-04-04,2017-05-09,04/04/2017 to 05/09/2017,0,6,0,6,0,FALSE,37.45414,-122.13669,Santa Clara
43_52,Pacheco C A San Felipe Rd Nr Dunneville Ca,2017-03-16,2017-04-13,03/16/2017 to 04/13/2017,0,5,0,5,0,FALSE,36.96,-121.419,Santa Clara
43_53,Uvas C A Miller Ave A Gilroy Ca,2017-03-14,2017-04-18,03/14/2017 to 04/18/2017,0,5,0,5,0,FALSE,36.99853,-121.58496,Santa Clara
43_54,Coyote C Nr Gilroy Ca,2017-03-28,2017-04-18,03/28/2017 to 04/18/2017,0,3,0,3,0,FALSE,37.07772,-121.49438,Santa Clara
43_55,Llagas C A San Martin Ave A San Martin Ca,2017-03-13,2017-04-10,03/13/2017 to 04/10/2017,0,5,0,5,0,FALSE,37.08674,-121.60521,Santa Clara
43_56,Llagas C Ab Chesbro Res Nr Morgan Hill Ca,2017-03-27,2017-04-10,03/27/2017 to 04/10/2017,0,3,0,3,0,FALSE,37.14833,-121.76833,Santa Clara
43_57,Coyote C A Coyote Rd Nr San Jose Ca,2017-03-14,2017-04-18,03/14/2017 to 04/18/2017,0,5,0,5,0,FALSE,37.26494,-121.79466,Santa Clara
43_58,Saratoga C A Braemar Dr A Saratoga Ca,2017-03-15,2017-04-19,03/15/2017 to 04/19/2017,0,6,0,6,0,FALSE,37.2722,-122.016,Santa Clara
43_59,Los Gatos C A E Hamilton Ave Nr Campbell Ca,2017-03-15,2017-04-19,03/15/2017 to 04/19/2017,0,4,0,4,0,FALSE,37.2939,-121.933,Santa Clara
43_60,Guadalupe R A Willow Glen Way Nr San Jose Ca,2017-03-14,2017-04-11,03/14/2017 to 04/11/2017,0,4,0,4,0,FALSE,37.30395,-121.88225,Santa Clara
43_61,Stevens C A Barranca Dr A Monta Vista Ca,2015-08-05,2017-01-10,08/05/2015 to 01/10/2017,1,6,1,5,16.666666666666664,TRUE,37.33444,-122.06444,Santa Clara
43_62,Coyote C Bl Charcot Ave Nr San Jose Ca,2017-04-03,2017-05-08,04/03/2017 to 05/08/2017,0,5,0,5,0,FALSE,37.3843,-121.908,Santa Clara
43_63,Matadero C A Josina Ave A Palo Alto Ca,2017-03-16,2017-04-20,03/16/2017 to 04/20/2017,0,5,0,5,0,FALSE,37.4168,-122.13659,Santa Clara
43_91,Silver Creek at McKee Rd and N King Rd,2018-08-07,2020-06-23,08/07/2018 to 06/23/2020,2,7,2,5,28.57142857142857,TRUE,37.35809,-121.86114,Santa Clara
43_92,SAN FRANCISCO BAY A STEVENS C NR MOUNTAIN VIEW CA,2017-06-07,2017-06-07,06/07/2017 to 06/07/2017,1,1,1,0,100,TRUE,37.45167,-122.06194,Santa Clara
43_93,COYOTE C ABV GUADALUPE SLOUGH NR ALVISO CA,2017-06-07,2017-06-07,06/07/2017 to 06/07/2017,0,1,0,1,0,FALSE,37.4575,-122.04,Santa Clara
43_94,ALVISO SLOUGH A MOUTH NR ALVISO CA,2017-06-06,2017-06-06,06/06/2017 to 06/06/2017,1,1,1,0,100,TRUE,37.46222,-122.02194,Santa Clara
43_95,SAN FRANCISCO BAY NR EMBARCADERO RD A PALO ALTO CA,2017-06-05,2017-06-05,06/05/2017 to 06/05/2017,1,1,1,0,100,TRUE,37.46278,-122.105,Santa Clara
44_15,Pajaro River at Thurwacher Bridge,2011-04-26,2011-06-14,04/26/2011 to 06/14/2011,0,2,0,2,0,FALSE,36.88001,-121.79322,Santa Cruz
44_17,"Watsonville Slough at Shell Rd, just upstream of tidegates",2011-04-26,2011-07-18,04/26/2011 to 07/18/2011,2,3,2,1,66.66666666666666,TRUE,36.87141,-121.81837,Santa Cruz
44_18,"Beach Street ditch, just upstream of Watsonville Slough tidegate",2011-04-26,2012-08-07,04/26/2011 to 08/07/2012,2,4,2,2,50,TRUE,36.86912,-121.81605,Santa Cruz
44_26,Pajaro River at Chittenden Gap (305CHIxxx 2006 SWAMP),2017-03-16,2017-04-20,03/16/2017 to 04/20/2017,1,6,1,5,16.666666666666664,TRUE,36.90033,-121.59616,Santa Cruz
44_30,Pajaro River at Porter/Main (305PJPxxx 2006 SWAMP),2017-03-15,2017-04-19,03/15/2017 to 04/19/2017,1,5,1,4,20,TRUE,36.9044,-121.7504,Santa Cruz
44_46,Corralitos C A Freedom Ca,2017-03-15,2017-04-19,03/15/2017 to 04/19/2017,0,5,0,5,0,FALSE,36.9394,-121.77051,Santa Cruz
44_47,Unnamed Trib A Paulsen Rd Nr Freedom Ca,2017-03-15,2017-04-19,03/15/2017 to 04/19/2017,1,6,1,5,16.666666666666664,TRUE,36.955,-121.7453,Santa Cruz
45_27,Human Activities Scan WHIS01,2015-08-19,2016-06-27,08/19/2015 to 06/27/2016,0,2,0,2,0,FALSE,40.65049,-122.67326,Shasta
45_31,Human Activities Scan WHIS06,2015-08-19,2015-08-19,08/19/2015 to 08/19/2015,0,1,0,1,0,FALSE,40.59093,-122.62319,Shasta
45_32,Human Activities Scan WHIS07,2015-08-19,2015-08-19,08/19/2015 to 08/19/2015,0,1,0,1,0,FALSE,40.58513,-122.62851,Shasta
45_33,Human Activities Scan WHIS08,2015-08-19,2015-08-19,08/19/2015 to 08/19/2015,0,1,0,1,0,FALSE,40.58852,-122.60324,Shasta
47_16,DPR study 306 site: J-Canal at Malone Road,2016-05-24,2016-05-24,05/24/2016 to 05/24/2016,0,1,0,1,0,FALSE,42.01056,-121.56121,Siskiyou
47_17,DPR study 306 site: J-Canal at Harpold Road,2016-05-24,2016-05-24,05/24/2016 to 05/24/2016,0,1,0,1,0,FALSE,42.00334,-121.44734,Siskiyou
47_18,DPR study 306 site: Main Drain at North Dike Rd West Side,2016-05-24,2016-05-24,05/24/2016 to 05/24/2016,0,1,0,1,0,FALSE,41.94118,-121.50683,Siskiyou
48_129,Suisun Creek Upper-SUICRKUP,2017-04-06,2017-05-04,04/06/2017 to 05/04/2017,0,5,0,5,0,FALSE,38.24442,-122.11228,Solano
48_132,Prospect Slough A Cache Slough Nr Rio Vista Ca,2015-06-03,2015-08-13,06/03/2015 to 08/13/2015,0,3,0,3,0,FALSE,38.23829,-121.68128,Solano
48_133,Cache Slough A Hass Slough Nr Liberty Farms Ca,2015-06-03,2015-08-13,06/03/2015 to 08/13/2015,0,3,0,3,0,FALSE,38.28838,-121.72302,Solano
48_134,Prospect Slough Nr Liberty Farms Ca,2015-06-03,2015-08-13,06/03/2015 to 08/13/2015,0,3,0,3,0,FALSE,38.2892,-121.66483,Solano
48_164,Prospect Slough A Prospect Island Nr Ryde Ca,2015-10-19,2019-10-16,10/19/2015 to 10/16/2019,0,31,0,31,0,FALSE,38.27425,-121.66417,Solano
48_165,Meridian Rd (DPR AG site),2017-07-12,2017-09-07,07/12/2017 to 09/07/2017,0,2,0,2,0,FALSE,38.44222,-121.91573,Solano
48_166,Midway Rd  (DPR AG site),2017-07-12,2017-09-07,07/12/2017 to 09/07/2017,0,2,0,2,0,FALSE,38.41687,-121.87342,Solano
48_176,ALAMO C A TULARE RD BR NR VACAVILLE CA,2017-04-03,2017-05-08,04/03/2017 to 05/08/2017,0,5,0,5,0,FALSE,38.34308,-121.96535,Solano
48_179,DELTA RMP YOLO-024,2019-09-17,2019-09-17,09/17/2019 to 09/17/2019,0,1,0,1,0,FALSE,38.18487,-121.66101,Solano
48_180,DELTA RMP YOLO-013,2019-06-18,2019-06-18,06/18/2019 to 06/18/2019,0,1,0,1,0,FALSE,38.2082,-121.66306,Solano
48_181,DELTA RMP YOLO-009,2019-04-30,2019-04-30,04/30/2019 to 04/30/2019,0,1,0,1,0,FALSE,38.24957,-121.675,Solano
48_182,DELTA RMP YOLO-006,2019-02-05,2019-02-05,02/05/2019 to 02/05/2019,1,1,1,0,100,TRUE,38.25214,-121.676,Solano
48_183,DELTA RMP YOLO-016,2019-06-18,2019-06-18,06/18/2019 to 06/18/2019,0,1,0,1,0,FALSE,38.25806,-121.7258,Solano
48_184,DELTA RMP YOLO-005,2019-02-05,2019-02-05,02/05/2019 to 02/05/2019,1,1,1,0,100,TRUE,38.25905,-121.668,Solano
48_185,DELTA RMP YOLO-018,2019-07-30,2019-07-30,07/30/2019 to 07/30/2019,0,1,0,1,0,FALSE,38.26025,-121.67886,Solano
48_186,DELTA RMP YOLO-003,2018-12-19,2018-12-19,12/19/2018 to 12/19/2018,1,1,1,0,100,TRUE,38.26105,-121.748,Solano
48_187,DELTA RMP SACR-002,2018-12-19,2018-12-19,12/19/2018 to 12/19/2018,1,1,1,0,100,TRUE,38.26207,-121.651,Solano
48_188,DELTA RMP YOLO-015,2019-06-18,2019-06-18,06/18/2019 to 06/18/2019,0,1,0,1,0,FALSE,38.26789,-121.66321,Solano
48_189,DELTA RMP YOLO-002,2018-12-19,2018-12-19,12/19/2018 to 12/19/2018,1,1,1,0,100,TRUE,38.26919,-121.692,Solano
48_190,DELTA RMP YOLO-007,2019-02-05,2019-02-05,02/05/2019 to 02/05/2019,1,1,1,0,100,TRUE,38.27122,-121.703,Solano
48_191,DELTA RMP YOLO-008,2019-02-05,2019-02-05,02/05/2019 to 02/05/2019,1,1,1,0,100,TRUE,38.2743,-121.674,Solano
48_192,DELTA RMP YOLO-020,2019-07-30,2019-07-30,07/30/2019 to 07/30/2019,0,1,0,1,0,FALSE,38.27881,-121.6778,Solano
48_193,DELTA RMP YOLO-023,2019-09-17,2019-09-17,09/17/2019 to 09/17/2019,0,1,0,1,0,FALSE,38.27899,-121.68779,Solano
48_194,DELTA RMP YOLO-001,2018-12-19,2018-12-19,12/19/2018 to 12/19/2018,1,1,1,0,100,TRUE,38.27952,-121.661,Solano
48_195,DELTA RMP YOLO-012,2019-04-30,2019-04-30,04/30/2019 to 04/30/2019,0,1,0,1,0,FALSE,38.28241,-121.681,Solano
48_196,DELTA RMP YOLO-017,2019-07-30,2019-07-30,07/30/2019 to 07/30/2019,0,1,0,1,0,FALSE,38.2833,-121.68577,Solano
48_197,DELTA RMP YOLO-021,2019-09-17,2019-09-17,09/17/2019 to 09/17/2019,0,1,0,1,0,FALSE,38.30107,-121.72978,Solano
48_198,DELTA RMP YOLO-011,2019-04-30,2019-04-30,04/30/2019 to 04/30/2019,0,1,0,1,0,FALSE,38.30568,-121.657,Solano
48_27,Ulatis Crk at Brown Rd,2015-07-28,2019-09-16,07/28/2015 to 09/16/2019,29,30,29,1,96.66666666666667,TRUE,38.30713,-121.79331,Solano
48_3,Cache Slough at Ryer Island Road (in Delta),2017-06-28,2018-10-25,06/28/2017 to 10/25/2018,0,19,0,19,0,FALSE,38.21278,-121.66917,Solano
48_42,Sweany Creek at Weber Road,2017-07-12,2018-09-06,07/12/2017 to 09/06/2018,1,5,1,4,20,TRUE,38.40238,-121.86188,Solano
48_47,Ulatis Creek at Farrell Road. CEDEN: 511LSAC07,2017-04-03,2017-05-08,04/03/2017 to 05/08/2017,0,5,0,5,0,FALSE,38.37908,-122.00426,Solano
48_52,Grizzly Bay at Dolphin nr. Suisun Slough. CEDEN: 207SNB0D7,2011-04-05,2012-05-29,04/05/2011 to 05/29/2012,0,20,0,20,0,FALSE,38.11708,-122.03972,Solano
49_100,SONOMA C A WATMAUGH RD BR NR SONOMA CA,2017-04-03,2017-05-01,04/03/2017 to 05/01/2017,0,5,0,5,0,FALSE,38.2658,-122.4674,Sonoma
49_101,LICHAU C A PENNGROVE CA,2017-04-04,2017-05-09,04/04/2017 to 05/09/2017,0,6,0,6,0,FALSE,38.29448,-122.66636,Sonoma
49_102,SONOMA C A AGUA CALIENTE CA,2017-04-03,2017-05-08,04/03/2017 to 05/08/2017,0,5,0,5,0,FALSE,38.32325,-122.49443,Sonoma
49_103,COPELAND C A ROHNERT PARK CA,2017-04-04,2017-05-09,04/04/2017 to 05/09/2017,0,5,0,5,0,FALSE,38.34325,-122.70193,Sonoma
49_104,SONOMA C A ADOBE CYN RD NR KENWOOD CA,2017-04-19,2017-05-10,04/19/2017 to 05/10/2017,0,4,0,4,0,FALSE,38.4427,-122.531,Sonoma
49_105,MARK WEST C A TARWATER RD NR CALISTOGA CA,2017-04-19,2017-05-03,04/19/2017 to 05/03/2017,0,3,0,3,0,FALSE,38.51905,-122.60922,Sonoma
49_107,PETALUMA R NR PETALUMA CA,2017-04-04,2017-05-02,04/04/2017 to 05/02/2017,0,5,0,5,0,FALSE,38.2553,-122.649,Sonoma
49_14,Mark West Crk at Wohler,2012-05-29,2012-05-29,05/29/2012 to 05/29/2012,0,1,0,1,0,FALSE,38.49259,-122.88229,Sonoma
49_18,Russian River at Geyserville (HWY 128),2012-05-29,2012-05-29,05/29/2012 to 05/29/2012,0,1,0,1,0,FALSE,38.71297,-122.89489,Sonoma
49_21,Russian River at Steelhead Beach,2012-05-29,2012-05-29,05/29/2012 to 05/29/2012,0,1,0,1,0,FALSE,38.49954,-122.8991,Sonoma
49_28,Santa Rosa Creek at Willowside Road (114SRCWS1 2005 SWAMP),2017-04-05,2017-05-10,04/05/2017 to 05/10/2017,0,6,0,6,0,FALSE,38.44517,-122.80685,Sonoma
49_30,Lytton Crk at Hassett Lane,2012-05-29,2012-05-29,05/29/2012 to 05/29/2012,0,1,0,1,0,FALSE,38.66492,-122.86317,Sonoma
49_31,Grid Crk at HWY 128,2012-05-29,2012-05-29,05/29/2012 to 05/29/2012,0,1,0,1,0,FALSE,38.68442,-122.84235,Sonoma
49_32,Porter Crk at Westside Rd,2012-05-29,2012-05-29,05/29/2012 to 05/29/2012,0,1,0,1,0,FALSE,38.51789,-122.89016,Sonoma
49_33,Wine Creek at Wine Creek Road,2012-05-30,2012-05-30,05/30/2012 to 05/30/2012,0,1,0,1,0,FALSE,38.65688,-122.94797,Sonoma
49_34,Grape Creek at W. Dry Creek Rd,2012-05-30,2012-05-30,05/30/2012 to 05/30/2012,0,1,0,1,0,FALSE,38.65652,-122.93742,Sonoma
49_35,Dry Creek at Lambert Bridge Rd,2012-05-30,2012-05-30,05/30/2012 to 05/30/2012,0,1,0,1,0,FALSE,38.65414,-122.9276,Sonoma
49_42,Mark West Creek at Trenton Healdsburg Road. CEDEN: 114MW0930,2016-10-28,2017-05-09,10/28/2016 to 05/09/2017,1,7,1,6,14.285714285714285,TRUE,38.49405,-122.85308,Sonoma
49_78,Unnamed Trib A Montgomery Rd Nr Sebastopol Ca,2017-04-05,2017-05-03,04/05/2017 to 05/03/2017,3,5,3,2,60,TRUE,38.39613,-122.87004,Sonoma
49_79,Colgan C Nr Santa Rosa Ca,2017-04-06,2017-05-11,04/06/2017 to 05/11/2017,0,5,0,5,0,FALSE,38.40214,-122.73304,Sonoma
49_80,Santa Rosa C A Santa Rosa Ca,2017-04-06,2017-05-11,04/06/2017 to 05/11/2017,0,5,0,5,0,FALSE,38.43658,-122.72471,Sonoma
49_81,Green Valley C A Graton Ca,2017-04-05,2017-05-03,04/05/2017 to 05/03/2017,0,5,0,5,0,FALSE,38.4387,-122.88711,Sonoma
49_82,Matanzas C A Santa Rosa Ca,2017-04-04,2017-05-02,04/04/2017 to 05/02/2017,0,5,0,5,0,FALSE,38.4388,-122.70249,Sonoma
49_85,Windsor C A Mark West Station Rd Nr Windsor Ca,2017-04-04,2017-05-09,04/04/2017 to 05/09/2017,4,6,4,2,66.66666666666666,TRUE,38.51093,-122.84011,Sonoma
49_87,Russian R A River Front Park Nr Windsor Ca,2016-10-28,2016-10-28,10/28/2016 to 10/28/2016,0,1,0,1,0,FALSE,38.52556,-122.86361,Sonoma
49_89,Dry C Nr Mouth Nr Healdsburg Ca,2017-04-03,2017-05-08,04/03/2017 to 05/08/2017,0,5,0,5,0,FALSE,38.58741,-122.86222,Sonoma
49_90,Maacama C A Chalk Hill Rd Br Nr Healdsburg Ca,2017-04-03,2017-05-08,04/03/2017 to 05/08/2017,0,5,0,5,0,FALSE,38.62196,-122.77369,Sonoma
49_92,Russian R A Jimtown Ca,2016-10-28,2016-10-28,10/28/2016 to 10/28/2016,0,1,0,1,0,FALSE,38.65824,-122.82944,Sonoma
50_28,Orestimba Creek at River Road (trib. to SJR),2001-10-09,2017-03-06,10/09/2001 to 03/06/2017,14,58,14,44,24.137931034482758,TRUE,37.41397,-121.01502,Stanislaus
50_36,Ingram C at River Rd Nr Patterson Ca (near HISLPA)_USGS NAWQA site,2015-06-09,2017-01-09,06/09/2015 to 01/09/2017,6,6,6,0,100,TRUE,37.60057,-121.224,Stanislaus
50_59,Ingram Ck at River Rd; Regional Board Irr. Lands Mon. site code: 541XICARR,2019-06-11,2020-09-10,06/11/2019 to 09/10/2020,6,9,6,3,66.66666666666666,TRUE,37.60022,-121.22506,Stanislaus
51_15,Butte Slough at Lower Pass Road,2020-05-14,2020-09-09,05/14/2020 to 09/09/2020,0,5,0,5,0,FALSE,39.18718,-121.90904,Sutter
51_25,Cross Canal at Garden Highway,2016-05-10,2016-10-25,05/10/2016 to 10/25/2016,1,2,1,1,50,TRUE,38.78072,-121.60405,Sutter
51_39,Lower Snake R. at Nuestro Rd; Regional Board Irr. Lands Mon. site code: 515LSRANR,2015-05-20,2016-11-16,05/20/2015 to 11/16/2016,1,6,1,5,16.666666666666664,TRUE,39.1852,-121.7035,Sutter
51_58,Sacramento R A R Mile 86.2 Nr Knights Landing Ca,2016-05-09,2016-10-24,05/09/2016 to 10/24/2016,0,2,0,2,0,FALSE,38.773,-121.68728,Sutter
51_59,Sacramento R A Verona Ca,2016-05-10,2016-10-25,05/10/2016 to 10/25/2016,0,2,0,2,0,FALSE,38.77435,-121.59829,Sutter
51_61,Sacramento Slough Nr Verona Ca,2016-05-10,2016-10-25,05/10/2016 to 10/25/2016,0,2,0,2,0,FALSE,38.78018,-121.63746,Sutter
51_62,Feather R A R Mile 0.4 Mi A Verona Ca,2016-05-10,2016-10-25,05/10/2016 to 10/25/2016,0,2,0,2,0,FALSE,38.79058,-121.62765,Sutter
51_65,Sacramento R A R Mile 94.6 Nr Robbins Ca,2016-05-09,2016-10-24,05/09/2016 to 10/24/2016,0,2,0,2,0,FALSE,38.86027,-121.73368,Sutter
51_67,Feather R Div A Yuba City Ca,2001-03-28,2001-05-23,03/28/2001 to 05/23/2001,0,3,0,3,0,FALSE,39.16156,-121.61247,Sutter
54_100,North Fork Kaweah River,2011-08-08,2015-05-11,08/08/2011 to 05/11/2015,0,3,0,3,0,FALSE,36.5441,-118.89678,Tulare
54_101,Tyler Creek,2011-08-07,2011-08-07,08/07/2011 to 08/07/2011,0,1,0,1,0,FALSE,35.88252,-118.69852,Tulare
54_102,Wolverton Creek,2015-08-10,2018-06-12,08/10/2015 to 06/12/2018,0,2,0,2,0,FALSE,36.59582,-118.73942,Tulare
54_103,Yucca Creek Downstream of Crystal Cave,2014-05-13,2014-09-08,05/13/2014 to 09/08/2014,0,2,0,2,0,FALSE,36.58925,-118.82602,Tulare
54_104,Yucca Creek in Crystal Cave,2014-05-13,2014-09-08,05/13/2014 to 09/08/2014,0,2,0,2,0,FALSE,36.5894,-118.82591,Tulare
54_105,Yucca Creek Upstream of Crystal Cave,2014-05-13,2014-09-08,05/13/2014 to 09/08/2014,0,2,0,2,0,FALSE,36.58937,-118.82559,Tulare
54_106,Human Activities Scan SEKI01,2015-07-22,2015-07-22,07/22/2015 to 07/22/2015,0,1,0,1,0,FALSE,36.58026,-118.8914,Tulare
54_107,Human Activities Scan SEKI02,2015-07-27,2017-06-13,07/27/2015 to 06/13/2017,0,6,0,6,0,FALSE,36.46222,-118.70381,Tulare
54_108,Human Activities Scan SEKI04,2015-07-23,2016-04-12,07/23/2015 to 04/12/2016,0,2,0,2,0,FALSE,36.50265,-118.75326,Tulare
54_109,Human Activities Scan SEKI05,2015-07-23,2016-04-12,07/23/2015 to 04/12/2016,0,2,0,2,0,FALSE,36.52853,-118.7507,Tulare
54_110,Human Activities Scan SEKI06,2015-07-27,2016-06-20,07/27/2015 to 06/20/2016,0,3,0,3,0,FALSE,36.44567,-118.71525,Tulare
54_111,Human Activities Scan SEKI07,2015-07-22,2015-07-22,07/22/2015 to 07/22/2015,0,1,0,1,0,FALSE,36.49665,-118.85189,Tulare
54_112,Human Activities Scan SEKI08,2015-07-27,2016-06-20,07/27/2015 to 06/20/2016,0,3,0,3,0,FALSE,36.43758,-118.73286,Tulare
54_113,Human Activities Scan SEKI09,2016-04-13,2016-04-13,04/13/2016 to 04/13/2016,0,1,0,1,0,FALSE,36.53767,-118.89151,Tulare
54_114,Human Activities Scan SEKI10,2015-07-23,2016-04-12,07/23/2015 to 04/12/2016,0,2,0,2,0,FALSE,36.50256,-118.75326,Tulare
54_115,Human Activities Scan SEKI11,2015-07-27,2016-06-20,07/27/2015 to 06/20/2016,0,3,0,3,0,FALSE,36.45602,-118.68925,Tulare
54_116,Human Activities Scan SEKI12,2015-07-27,2017-06-13,07/27/2015 to 06/13/2017,0,6,0,6,0,FALSE,36.44336,-118.76749,Tulare
54_117,Human Activities Scan SEKI13,2015-07-27,2017-06-13,07/27/2015 to 06/13/2017,0,4,0,4,0,FALSE,36.44346,-118.76748,Tulare
54_118,Human Activities Scan SEKI14,2015-07-22,2015-07-22,07/22/2015 to 07/22/2015,0,1,0,1,0,FALSE,36.5798,-118.8937,Tulare
54_119,Human Activities Scan SEKI15,2016-04-13,2016-04-13,04/13/2016 to 04/13/2016,0,1,0,1,0,FALSE,36.54505,-118.89445,Tulare
54_120,Human Activities Scan SEKI16,2016-04-13,2016-04-13,04/13/2016 to 04/13/2016,0,1,0,1,0,FALSE,36.34206,-118.75716,Tulare
54_121,Human Activities Scan SEKI17,2016-04-13,2016-04-13,04/13/2016 to 04/13/2016,0,1,0,1,0,FALSE,36.49657,-118.82554,Tulare
54_122,Human Activities Scan SEKI18,2015-07-23,2015-07-23,07/23/2015 to 07/23/2015,0,1,0,1,0,FALSE,36.49657,-118.82554,Tulare
54_123,Human Activities Scan SEKI19,2015-08-24,2015-08-24,08/24/2015 to 08/24/2015,0,1,0,1,0,FALSE,36.34732,-118.73517,Tulare
54_124,Human Activities Scan SEKI21,2015-07-24,2015-07-24,07/24/2015 to 07/24/2015,0,1,0,1,0,FALSE,36.5895,-118.8246,Tulare
54_125,Human Activities Scan SEKI22,2015-07-24,2015-07-24,07/24/2015 to 07/24/2015,0,1,0,1,0,FALSE,36.59236,-118.82715,Tulare
54_126,Human Activities Scan SEKI23,2015-07-24,2015-07-24,07/24/2015 to 07/24/2015,0,1,0,1,0,FALSE,36.55353,-118.7494,Tulare
54_127,Human Activities Scan SEKI24,2015-07-24,2015-07-24,07/24/2015 to 07/24/2015,0,1,0,1,0,FALSE,36.58457,-118.83394,Tulare
54_128,Human Activities Scan SEKI26,2015-08-24,2015-08-24,08/24/2015 to 08/24/2015,0,1,0,1,0,FALSE,36.36014,-118.73246,Tulare
54_129,Human Activities Scan SEKI27,2015-08-24,2015-08-24,08/24/2015 to 08/24/2015,0,1,0,1,0,FALSE,36.34746,-118.73498,Tulare
54_130,Human Activities Scan SEKI28,2015-08-24,2015-08-24,08/24/2015 to 08/24/2015,0,1,0,1,0,FALSE,36.34751,-118.75198,Tulare
54_131,Human Activities Scan SEKI29,2015-08-24,2016-04-13,08/24/2015 to 04/13/2016,0,2,0,2,0,FALSE,36.35197,-118.75118,Tulare
54_132,Human Activities Scan SEKI31,2015-08-24,2015-08-24,08/24/2015 to 08/24/2015,0,1,0,1,0,FALSE,36.3515,-118.79788,Tulare
54_133,Human Activities Scan SEKI36,2017-05-03,2017-06-13,05/03/2017 to 06/13/2017,0,3,0,3,0,FALSE,36.44858,-118.773,Tulare
54_135,Human Activities Scan SEKI43,2017-05-03,2017-06-13,05/03/2017 to 06/13/2017,0,3,0,3,0,FALSE,36.4365,-118.742,Tulare
54_58,"Middle Fork Kaweah River near Potwisha Camp, CA",2011-09-12,2016-06-13,09/12/2011 to 06/13/2016,0,6,0,6,0,FALSE,36.513,-118.79176,Tulare
54_59,"Marble Fork Kaweah River above Tokopah Falls near Kaweah, CA",2013-09-10,2014-07-09,09/10/2013 to 07/09/2014,0,3,0,3,0,FALSE,36.60855,-118.68871,Tulare
54_60,"Marble Fork Kaweah River at Potwisha Camp, CA",2011-09-12,2019-10-16,09/12/2011 to 10/16/2019,0,12,0,12,0,FALSE,36.5219,-118.79927,Tulare
54_61,Alder Creek at Impoundment,2012-05-08,2018-05-14,05/08/2012 to 05/14/2018,0,6,0,6,0,FALSE,36.49354,-118.82618,Tulare
54_62,Heather Lake,2013-07-01,2019-10-09,07/01/2013 to 10/09/2019,0,6,0,6,0,FALSE,36.60104,-118.68791,Tulare
54_63,Kaweah River at Southern Califonia Edison Plant No. 3,2013-05-13,2019-10-16,05/13/2013 to 10/16/2019,0,7,0,7,0,FALSE,36.48679,-118.83589,Tulare
54_64,Marble Fork Kaweah River at Lodgepole Campground,2013-11-12,2019-10-15,11/12/2013 to 10/15/2019,0,8,0,8,0,FALSE,36.60426,-118.73482,Tulare
54_65,Marble Fork Bridge,2012-05-08,2019-10-15,05/08/2012 to 10/15/2019,0,12,0,12,0,FALSE,36.57569,-118.78678,Tulare
54_66,Oriole Lake,2013-09-10,2019-08-12,09/10/2013 to 08/12/2019,0,2,0,2,0,FALSE,36.46015,-118.73713,Tulare
54_67,Pear Lake,2011-09-08,2019-10-09,09/08/2011 to 10/09/2019,0,5,0,5,0,FALSE,36.6034,-118.66884,Tulare
54_68,Sycamore Creek,2011-08-08,2016-06-13,08/08/2011 to 06/13/2016,0,4,0,4,0,FALSE,36.48711,-118.84503,Tulare
54_69,"Unnamed Tributary to Sequoia Creek in Wilsonia, CA",2013-05-13,2018-06-11,05/13/2013 to 06/11/2018,0,3,0,3,0,FALSE,36.73245,-118.95904,Tulare
54_70,Yucca Creek,2011-08-08,2019-07-08,08/08/2011 to 07/08/2019,0,6,0,6,0,FALSE,36.54505,-118.89557,Tulare
54_88,Aster Lake,2014-07-09,2019-10-09,07/09/2014 to 10/09/2019,0,3,0,3,0,FALSE,36.60299,-118.68029,Tulare
54_89,"Emerald Lake Outflow near Giant Forest, CA",2011-09-07,2019-10-09,09/07/2011 to 10/09/2019,0,5,0,5,0,FALSE,36.59816,-118.67627,Tulare
54_90,Franklin Lake,2011-07-11,2011-07-11,07/11/2011 to 07/11/2011,0,1,0,1,0,FALSE,36.421,-118.56138,Tulare
54_91,Spring Lake,2011-07-10,2011-07-10,07/10/2011 to 07/10/2011,0,1,0,1,0,FALSE,36.47302,-118.55842,Tulare
54_92,Topaz Lake,2011-09-08,2011-09-08,09/08/2011 to 09/08/2011,0,1,0,1,0,FALSE,36.62483,-118.6393,Tulare
54_93,Large Unnamed Pond,2011-08-07,2011-08-07,08/07/2011 to 08/07/2011,0,1,0,1,0,FALSE,35.88572,-118.69914,Tulare
54_94,Unnamed Stock Pond,2011-08-07,2011-08-07,08/07/2011 to 08/07/2011,0,1,0,1,0,FALSE,35.88506,-118.68964,Tulare
54_95,Crescent Creek,2015-08-10,2019-10-15,08/10/2015 to 10/15/2019,0,4,0,4,0,FALSE,36.55409,-118.74855,Tulare
54_98,Kaweah River below Research Center,2012-06-01,2012-06-01,06/01/2012 to 06/01/2012,0,1,0,1,0,FALSE,36.48864,-118.83037,Tulare
54_99,Little Deer Creek in Giant Forest,2014-07-14,2019-10-15,07/14/2014 to 10/15/2019,0,5,0,5,0,FALSE,36.56772,-118.77339,Tulare
55_1,Tuolumne River at Tioga Road Bridge,2012-06-01,2017-10-03,06/01/2012 to 10/03/2017,0,10,0,10,0,FALSE,37.87564,-119.35467,Tuolumne
56_21,Revolon Sl at Hueneme,2011-08-09,2011-08-09,08/09/2011 to 08/09/2011,1,1,1,0,100,TRUE,34.15124,-119.08843,Ventura
56_47,Todd Barranca under HWY 126,2011-08-09,2011-08-09,08/09/2011 to 08/09/2011,1,1,1,0,100,TRUE,34.31301,-119.11666,Ventura
56_48,Agricultural drain near Hueneme,2011-08-09,2011-08-09,08/09/2011 to 08/09/2011,1,1,1,0,100,TRUE,34.13943,-119.1184,Ventura
56_49,Agricultural drain at Broome Ranch Rd,2011-08-09,2011-08-09,08/09/2011 to 08/09/2011,0,1,0,1,0,FALSE,34.14339,-119.05866,Ventura
57_2,Colusa Basin Drain above Knights Landing,2019-08-06,2019-10-15,08/06/2019 to 10/15/2019,0,6,0,6,0,FALSE,38.81204,-121.77416,Yolo
57_22,Toe Drain at NE corner of Little Holland; Regional Board Irr. Lands Mon. site code: 510TDNLHT,2015-10-19,2020-03-10,10/19/2015 to 03/10/2020,2,22,2,20,9.090909090909092,TRUE,38.3491,-121.645,Yolo
57_23,Tule Canal at I-80; Regional Board Irr. Lands Mon. site code: 511TCNI80,2015-10-19,2015-10-19,10/19/2015 to 10/19/2015,0,1,0,1,0,FALSE,38.57282,-121.58257,Yolo
57_41,Yolo Basin Wildlife Area Ag Drain. CEDEN: 519YBWAxx,2017-07-12,2020-09-09,07/12/2017 to 09/09/2020,0,16,0,16,0,FALSE,38.55234,-121.62917,Yolo
57_42,Yolo Basin Wildlife Area Wetland #2. CEDEN: 519YBWW2x,2017-07-12,2018-09-05,07/12/2017 to 09/05/2018,0,5,0,5,0,FALSE,38.55006,-121.62608,Yolo
57_54,Little Holland Tract Nr Courtland Ca,2015-06-03,2015-08-13,06/03/2015 to 08/13/2015,0,3,0,3,0,FALSE,38.33486,-121.6578,Yolo
57_55,Liberty Island A Liberty Cut Nr Courtland Ca,2015-06-03,2015-08-13,06/03/2015 to 08/13/2015,0,3,0,3,0,FALSE,38.33501,-121.67111,Yolo
57_58,Toe Drain Nr Babel Slough Nr Freeport Ca,2015-10-19,2019-10-15,10/19/2015 to 10/15/2019,2,32,2,30,6.25,TRUE,38.47478,-121.58822,Yolo
57_60,Sacramento River at Bryte (City of West Sacramento Intake site),2016-05-11,2016-10-26,05/11/2016 to 10/26/2016,0,2,0,2,0,FALSE,38.5978,-121.5481,Yolo
57_61,Tule Canal A Rd 22 Nr Woodland Ca,2015-10-19,2019-10-15,10/19/2015 to 10/15/2019,9,30,9,21,30,TRUE,38.67636,-121.64397,Yolo
57_62,Knights Landing Ridge Cut A Knights Landing Ca,2015-10-19,2018-10-25,10/19/2015 to 10/25/2018,3,23,3,20,13.043478260869565,TRUE,38.79353,-121.72544,Yolo
57_63,Colusa Basin Drainage Canal A Knights Landing Ca,2016-05-09,2016-10-24,05/09/2016 to 10/24/2016,0,2,0,2,0,FALSE,38.80108,-121.72325,Yolo
57_69,DELTA RMP YOLO-022,2019-09-17,2019-09-17,09/17/2019 to 09/17/2019,0,1,0,1,0,FALSE,38.31798,-121.65177,Yolo
57_70,DELTA RMP YOLO-004,2018-12-19,2018-12-19,12/19/2018 to 12/19/2018,0,1,0,1,0,FALSE,38.31957,-121.693,Yolo
57_71,DELTA RMP YOLO-014,2019-06-18,2019-06-18,06/18/2019 to 06/18/2019,1,1,1,0,100,TRUE,38.38195,-121.62601,Yolo
57_72,DELTA RMP YOLO-019,2019-07-30,2019-07-30,07/30/2019 to 07/30/2019,0,1,0,1,0,FALSE,38.43301,-121.60288,Yolo
57_73,DELTA RMP YOLO-010,2019-04-30,2019-04-30,04/30/2019 to 04/30/2019,1,1,1,0,100,TRUE,38.46178,-121.589,Yolo
58_11,JS_Jack Slough,2017-07-13,2018-09-06,07/13/2017 to 09/06/2018,0,5,0,5,0,FALSE,39.18038,-121.57108,Yuba
58_13,JS_Ellis,2017-07-13,2018-09-06,07/13/2017 to 09/06/2018,0,5,0,5,0,FALSE,39.19807,-121.57818,Yuba
